[
  {
    "matchId": "8G2j6tEG",
    "date": "03.04.2026 15:30",
    "home_team": "Gil Vicente",
    "away_team": "AFS",
    "stadium": "Estádio Cidade de Barcelos",
    "stadium_lat": 41.5284,
    "stadium_lon": -8.6111,
    "nearby_stores": [
      {
        "name": "Braga Dume",
        "address": "4700-442",
        "distance_km": 15.25,
        "lat": 41.554293,
        "lon": -8.4311409,
        "schedule": "24/7"
      },
      {
        "name": "Braga - Avenida da Liberdade",
        "address": "4710-308",
        "distance_km": 15.9,
        "lat": 41.5476654,
        "lon": -8.4218305,
        "schedule": "Mo-Su 08:00-21:00; easter 08:00-14:00"
      },
      {
        "name": "Braga - Pachancho",
        "address": "Rua do Regimento de Infantaria, 4700-145 Urbanização do Pachancho, Lugar de Infias, Braga",
        "distance_km": 16.51,
        "lat": 41.5583489,
        "lon": -8.4167765,
        "schedule": "Seg, Ter, Sex, Sáb, Dom: 8-21; Qua 8-18; Qui encerrado"
      }
    ]
  },
  {
    "matchId": "Gt6b4KrT",
    "date": "04.04.2026 15:30",
    "home_team": "Nacional",
    "away_team": "Estrela da Amadora",
    "stadium": "Estádio da Madeira",
    "stadium_lat": 32.6669,
    "stadium_lon": -16.8929,
    "nearby_stores": [
      {
        "name": "Super Anadia",
        "address": "Rua Doutor Fernão de Ornelas, 9050-020 Funchal",
        "distance_km": 2.24,
        "lat": 32.6493136,
        "lon": -16.9046475,
        "schedule": "Mo-Su 07:30-22:00; easter 07:30-14:00"
      },
      {
        "name": "Super Penteada",
        "address": "9000-000 Funchal",
        "distance_km": 3.37,
        "lat": 32.663472,
        "lon": -16.9286424,
        "schedule": "Mo-Su 07:30-21:00; easter 07:30-14:00"
      },
      {
        "name": "Super Cancela",
        "address": "Estrada do Garajau, 9125-067 Caniço",
        "distance_km": 4.03,
        "lat": 32.646567,
        "lon": -16.8572958,
        "schedule": "Mo-Su 08:00-22:00; easter 08:00-14:00"
      }
    ]
  },
  {
    "matchId": "SIfc2XCr",
    "date": "04.04.2026 18:00",
    "home_team": "Moreirense",
    "away_team": "Braga",
    "stadium": "Estádio Com. Joaquim de Almeida Freitas",
    "stadium_lat": 41.4363,
    "stadium_lon": -8.3562,
    "nearby_stores": [
      {
        "name": "Guimarães - Av. D. João IV",
        "address": "4810-225",
        "distance_km": 5.36,
        "lat": 41.4379641,
        "lon": -8.2919309,
        "schedule": "Mo-Su 08:00-21:00; easter 08:00-14:00"
      },
      {
        "name": "Riba de Ave",
        "address": "4765-213",
        "distance_km": 5.37,
        "lat": 41.3952804,
        "lon": -8.3902594,
        "schedule": "Mo-Su 08:00-21:00; easter 08:00-14:00"
      },
      {
        "name": "Caldas das Taipas-Guimarães",
        "address": "4801-908",
        "distance_km": 5.73,
        "lat": 41.487789,
        "lon": -8.3551167,
        "schedule": "Mo-Su 09:00-21:00"
      }
    ]
  },
  {
    "matchId": "jcP0Mh4E",
    "date": "03.04.2026 18:00",
    "home_team": "Vitória SC",
    "away_team": "Tondela",
    "stadium": "Estádio D. Afonso Henriques",
    "stadium_lat": 41.4468,
    "stadium_lon": -8.2917,
    "nearby_stores": [
      {
        "name": "Guimarães - Av. D. João IV",
        "address": "4810-225",
        "distance_km": 0.98,
        "lat": 41.4379641,
        "lon": -8.2919309,
        "schedule": "Mo-Su 08:00-21:00; easter 08:00-14:00"
      },
      {
        "name": "Caldas das Taipas-Guimarães",
        "address": "4801-908",
        "distance_km": 6.98,
        "lat": 41.487789,
        "lon": -8.3551167,
        "schedule": "Mo-Su 09:00-21:00"
      },
      {
        "name": "Fafe - Av. Brasil",
        "address": "4820-121",
        "distance_km": 9.64,
        "lat": 41.4480225,
        "lon": -8.1760073,
        "schedule": "Mo-Su 08:00-21:00; easter 08:00-14:00"
      }
    ]
  },
  {
    "matchId": "MJSPKuT9",
    "date": "03.04.2026 20:30",
    "home_team": "Sporting CP",
    "away_team": "Santa Clara",
    "stadium": "Estádio José Alvalade",
    "stadium_lat": 38.761,
    "stadium_lon": -9.1609,
    "nearby_stores": [
      {
        "name": "Parque Europa",
        "address": "Avenida Maria Helena Vieira da Silva, 1750-336 Lumiar",
        "distance_km": 0.92,
        "lat": 38.7669675,
        "lon": -9.1536025,
        "schedule": "Mo-Su 08:00-21:30; easter 08:00-14:00"
      },
      {
        "name": "Galhardas",
        "address": "1600-213",
        "distance_km": 0.95,
        "lat": 38.7534094,
        "lon": -9.1658605,
        "schedule": "Mo-Su 08:00-21:00; easter 08:00-14:00"
      },
      {
        "name": "Estrada Da Luz",
        "address": "Rua Abranches Ferrão, 1600-001",
        "distance_km": 1.52,
        "lat": 38.7503335,
        "lon": -9.1719107,
        "schedule": "Mo-Su 08:00-21:00; easter 08:00-14:00"
      }
    ]
  },
  {
    "matchId": "YcnVbb6j",
    "date": "04.04.2026 18:00",
    "home_team": "Rio Ave",
    "away_team": "Alverca",
    "stadium": "Estádio do Rio Ave FC",
    "stadium_lat": 41.3547,
    "stadium_lon": -8.741,
    "nearby_stores": [
      {
        "name": "Lavra",
        "address": "4455-089",
        "distance_km": 11.52,
        "lat": 41.2541763,
        "lon": -8.7077434,
        "schedule": "PH,Mo-Su 08:30-21:00"
      },
      {
        "name": "Moreira da Maia",
        "address": "Travessa Manuel Batista Barros, 4470-605 Moreira",
        "distance_km": 13.42,
        "lat": 41.2553145,
        "lon": -8.6498178,
        "schedule": "Mo-Su 08:00-21:00; easter 08:00-14:00"
      },
      {
        "name": "Quiosque do Pingo Doce",
        "address": "",
        "distance_km": 14.54,
        "lat": 41.2645528,
        "lon": -8.6149529,
        "schedule": "N/A"
      }
    ]
  },
  {
    "matchId": "zksEbkC7",
    "date": "06.04.2026 18:45",
    "home_team": "Arouca",
    "away_team": "Estoril",
    "stadium": "Estádio Municipal de Arouca",
    "stadium_lat": 40.9231,
    "stadium_lon": -8.2464,
    "nearby_stores": [
      {
        "name": "Arouca",
        "address": "4540-102",
        "distance_km": 0.63,
        "lat": 40.9285861,
        "lon": -8.2484708,
        "schedule": "Mo-Su 08:00-21:00; easter 08:00-14:00"
      },
      {
        "name": "São João da Madeira - Rua Visconde",
        "address": "3700-267",
        "distance_km": 20.82,
        "lat": 40.8982811,
        "lon": -8.4919721,
        "schedule": "Mo-Su 08:00-21:00; easter 08:00-14:00"
      },
      {
        "name": "Oliveira de Azeméis - Shopping Rainha",
        "address": "3720-232",
        "distance_km": 21.76,
        "lat": 40.8387339,
        "lon": -8.4799994,
        "schedule": "Mo-Su 08:00-21:00; easter 08:00-14:00"
      }
    ]
  },
  {
    "matchId": "GMsMRmtf",
    "date": "10.04.2026 20:45",
    "home_team": "Famalicão",
    "away_team": "Moreirense",
    "stadium": "Estádio Municipal 22 de Junho",
    "stadium_lat": 41.4082,
    "stadium_lon": -8.5147,
    "nearby_stores": [
      {
        "name": "Trofa - Shopping",
        "address": "4785-333",
        "distance_km": 8.64,
        "lat": 41.3386536,
        "lon": -8.5609241,
        "schedule": "Mo-Su 08:00-21:30; easter 08:00-14:00"
      },
      {
        "name": "Trofa - Santiago de Bougado",
        "address": "4785-699",
        "distance_km": 10.08,
        "lat": 41.3271147,
        "lon": -8.5688413,
        "schedule": "Mo-Su 08:00-21:30; easter 08:00-14:00"
      },
      {
        "name": "Vila das Aves",
        "address": "4795-001",
        "distance_km": 10.17,
        "lat": 41.3668852,
        "lon": -8.4059383,
        "schedule": "Mo-Su 08:00-21:00; easter 08:00-14:00"
      }
    ]
  },
  {
    "matchId": "QiZGM1bc",
    "date": "04.04.2026 20:30",
    "home_team": "FC Porto",
    "away_team": "Famalicão",
    "stadium": "Estádio do Dragão",
    "stadium_lat": 41.1618,
    "stadium_lon": -8.5839,
    "nearby_stores": [
      {
        "name": "São Roque da Lameira Porto",
        "address": "4350-307",
        "distance_km": 0.37,
        "lat": 41.1584656,
        "lon": -8.5833453,
        "schedule": "Mo-Su 07:00-22:00"
      },
      {
        "name": "Velasques",
        "address": "Praça de Francisco Sá Carneiro, 4200-313 Porto",
        "distance_km": 0.77,
        "lat": 41.1628775,
        "lon": -8.5929753,
        "schedule": "Mo-Su 08:00-21:00; easter 08:00-14:00"
      },
      {
        "name": "Salgueiros Paranhos",
        "address": "Rua de Aval de Baixo, 4200-099 Paranhos",
        "distance_km": 1.38,
        "lat": 41.1679272,
        "lon": -8.5982629,
        "schedule": "Mo-Su 08:00-21:00; easter 08:00-14:00"
      }
    ]
  },
  {
    "matchId": "lYr60Bse",
    "date": "06.04.2026 20:45",
    "home_team": "Casa Pia AC",
    "away_team": "Benfica",
    "stadium": "Estádio Nacional",
    "stadium_lat": 38.7053,
    "stadium_lon": -9.2565,
    "nearby_stores": [
      {
        "name": "Algés",
        "address": "Rua General Humberto Delgado, 1495-068 Oeiras",
        "distance_km": 2.45,
        "lat": 38.6999509,
        "lon": -9.229088,
        "schedule": "Mo-Su 07:30-21:00; easter 07:30-14:00"
      },
      {
        "name": "Carnaxide - Centro Comercial Solátia",
        "address": "Avenida de Portugal, 2790-128 Carnaxide",
        "distance_km": 2.7,
        "lat": 38.7260652,
        "lon": -9.2404323,
        "schedule": "Mo-Su 08:00-21:30"
      },
      {
        "name": "Paço de Arcos",
        "address": "2780-161",
        "distance_km": 3.35,
        "lat": 38.6959077,
        "lon": -9.2931254,
        "schedule": "Mo-Su 08:00-21:00; easter 08:00-14:00"
      }
    ]
  },
  {
    "matchId": "vyBZ9OEi",
    "date": "22.03.2026 20:30",
    "home_team": "Braga",
    "away_team": "FC Porto",
    "stadium": "Estádio Municipal de Braga",
    "stadium_lat": 41.5606,
    "stadium_lon": -8.4286,
    "nearby_stores": [
      {
        "name": "Braga Dume",
        "address": "4700-442",
        "distance_km": 0.73,
        "lat": 41.554293,
        "lon": -8.4311409,
        "schedule": "24/7"
      },
      {
        "name": "Braga - Pachancho",
        "address": "Rua do Regimento de Infantaria, 4700-145 Urbanização do Pachancho, Lugar de Infias, Braga",
        "distance_km": 1.02,
        "lat": 41.5583489,
        "lon": -8.4167765,
        "schedule": "Seg, Ter, Sex, Sáb, Dom: 8-21; Qua 8-18; Qui encerrado"
      },
      {
        "name": "Braga - Avenida da Liberdade",
        "address": "4710-308",
        "distance_km": 1.54,
        "lat": 41.5476654,
        "lon": -8.4218305,
        "schedule": "Mo-Su 08:00-21:00; easter 08:00-14:00"
      }
    ]
  },
  {
    "matchId": "KGPI9f3B",
    "date": "22.03.2026 18:00",
    "home_team": "Alverca",
    "away_team": "Sporting CP",
    "stadium": "Complexo Desportivo FC Alverca",
    "stadium_lat": 38.8979,
    "stadium_lon": -9.035,
    "nearby_stores": [
      {
        "name": "Alverca - Super",
        "address": "Rua Brigadeiro Fernando Alberto de Oliveira, 2615-077 Vila Franca de Xira",
        "distance_km": 0.49,
        "lat": 38.8947812,
        "lon": -9.0390566,
        "schedule": "Mo-Su 08:00-21:00; easter 08:00-14:00"
      },
      {
        "name": "Sobralinho",
        "address": "2615-042",
        "distance_km": 1.38,
        "lat": 38.9090451,
        "lon": -9.0280688,
        "schedule": "Mo-Su 08:00-21:00; easter 08:00-14:00"
      },
      {
        "name": "Tágides Park",
        "address": "2625-239",
        "distance_km": 5.94,
        "lat": 38.8561622,
        "lon": -9.0778001,
        "schedule": "Mo-Su 09:00-21:00; easter 09:00-14:00"
      }
    ]
  },
  {
    "matchId": "6DaqeelI",
    "date": "21.03.2026 20:30",
    "home_team": "Tondela",
    "away_team": "AFS",
    "stadium": "Estádio João Cardoso",
    "stadium_lat": 40.5117,
    "stadium_lon": -8.0828,
    "nearby_stores": [
      {
        "name": "Tondela",
        "address": "3460-482 Tondela",
        "distance_km": 2.0,
        "lat": 40.5291489,
        "lon": -8.0885299,
        "schedule": "Mo-Su 09:00-20:30"
      },
      {
        "name": "Viseu - Rua Mendonça",
        "address": "3510-156",
        "distance_km": 21.25,
        "lat": 40.6529006,
        "lon": -7.9133005,
        "schedule": "Mo-Su 08:00-21:00; easter 08:00-14:00"
      },
      {
        "name": "Viseu Forum",
        "address": "3510-153",
        "distance_km": 21.98,
        "lat": 40.6621965,
        "lon": -7.9139805,
        "schedule": "Mo-Su 08:00-21:00; easter 08:00-18:00"
      }
    ]
  },
  {
    "matchId": "CjMABGYb",
    "date": "22.03.2026 15:30",
    "home_team": "Estoril",
    "away_team": "Rio Ave",
    "stadium": "Estádio António Coimbra da Mota",
    "stadium_lat": 38.7062,
    "stadium_lon": -9.3957,
    "nearby_stores": [
      {
        "name": "Alapraia",
        "address": "2765-088",
        "distance_km": 1.52,
        "lat": 38.7048573,
        "lon": -9.3782281,
        "schedule": "Mo-Su 08:00-21:00; easter 08:00-14:00"
      },
      {
        "name": "Cascais - Castelhana",
        "address": "Rua Outeiro, 2755-287 Alcabideche",
        "distance_km": 1.71,
        "lat": 38.7126473,
        "lon": -9.4136311,
        "schedule": "Mo-Su 08:00-21:00; easter 08:00-14:00"
      },
      {
        "name": "Alvide",
        "address": "2755-030",
        "distance_km": 2.66,
        "lat": 38.7149963,
        "lon": -9.4241949,
        "schedule": "Mo-Su 07:30-21:00; easter 07:30-14:00"
      }
    ]
  },
  {
    "matchId": "GrJR7YXN",
    "date": "21.03.2026 15:30",
    "home_team": "Famalicão",
    "away_team": "Nacional",
    "stadium": "Estádio Municipal 22 de Junho",
    "stadium_lat": 41.4082,
    "stadium_lon": -8.5147,
    "nearby_stores": [
      {
        "name": "Trofa - Shopping",
        "address": "4785-333",
        "distance_km": 8.64,
        "lat": 41.3386536,
        "lon": -8.5609241,
        "schedule": "Mo-Su 08:00-21:30; easter 08:00-14:00"
      },
      {
        "name": "Trofa - Santiago de Bougado",
        "address": "4785-699",
        "distance_km": 10.08,
        "lat": 41.3271147,
        "lon": -8.5688413,
        "schedule": "Mo-Su 08:00-21:30; easter 08:00-14:00"
      },
      {
        "name": "Vila das Aves",
        "address": "4795-001",
        "distance_km": 10.17,
        "lat": 41.3668852,
        "lon": -8.4059383,
        "schedule": "Mo-Su 08:00-21:00; easter 08:00-14:00"
      }
    ]
  },
  {
    "matchId": "CE4c2Ceo",
    "date": "21.03.2026 18:00",
    "home_team": "Santa Clara",
    "away_team": "Gil Vicente",
    "stadium": "Estádio de São Miguel",
    "stadium_lat": 37.7471,
    "stadium_lon": -25.6558,
    "nearby_stores": [
      {
        "name": "Avenida Ponta Delgada - Açores",
        "address": "9500-764",
        "distance_km": 1.08,
        "lat": 37.7401121,
        "lon": -25.6644029,
        "schedule": "Mo-Su 08:30-20:00; easter 08:30-15:00"
      },
      {
        "name": "Capelas - Açores",
        "address": "9545-108",
        "distance_km": 9.75,
        "lat": 37.8311834,
        "lon": -25.6872102,
        "schedule": "Mo-Su 08:30-20:30; easter 08:30-15:00"
      },
      {
        "name": "Santa Maria - Açores",
        "address": "Rua Doutor Luís Bettencourt, 9580-522 Vila do Porto",
        "distance_km": 99.22,
        "lat": 36.953517,
        "lon": -25.1426809,
        "schedule": "Mo-Su 08:00-20:00; easter 08:00-15:00"
      }
    ]
  },
  {
    "matchId": "n1Es82q4",
    "date": "21.03.2026 18:00",
    "home_team": "Benfica",
    "away_team": "Vitória SC",
    "stadium": "Estádio da Luz",
    "stadium_lat": 38.7525,
    "stadium_lon": -9.1849,
    "nearby_stores": [
      {
        "name": "Torres da Luz",
        "address": "1500-662",
        "distance_km": 0.39,
        "lat": 38.7546637,
        "lon": -9.1814072,
        "schedule": "Mo-Su 08:00-21:00; easter 08:00-14:00"
      },
      {
        "name": "Fonte Nova",
        "address": "1500-083",
        "distance_km": 0.67,
        "lat": 38.7485112,
        "lon": -9.1906699,
        "schedule": "Mo-Su 08:00-22:00; easter 08:00-19:00"
      },
      {
        "name": "Benfica",
        "address": "Avenida do Uruguai, 1500-615 Lisboa",
        "distance_km": 0.96,
        "lat": 38.7538891,
        "lon": -9.1957808,
        "schedule": "Mo-Su 08:00-21:00; easter 08:00-14:00"
      }
    ]
  },
  {
    "matchId": "2ughgZIU",
    "date": "20.03.2026 20:15",
    "home_team": "Estrela da Amadora",
    "away_team": "Casa Pia AC",
    "stadium": "Estádio José Gomes",
    "stadium_lat": 38.7582,
    "stadium_lon": -9.2434,
    "nearby_stores": [
      {
        "name": "Amadora",
        "address": "2700-336",
        "distance_km": 0.51,
        "lat": 38.759968,
        "lon": -9.2380081,
        "schedule": "Mo-Su 08:00-21:00; easter 08:00-14:00"
      },
      {
        "name": "Queluz - António Enes",
        "address": "Rua António Enes, 2745-067 Sintra",
        "distance_km": 1.04,
        "lat": 38.7572798,
        "lon": -9.2552992,
        "schedule": "Mo-Su 08:00-21:00; easter 08:00-14:00"
      },
      {
        "name": "Serra da Mira",
        "address": "Estrada da Serra da Mira, 2700-364 Amadora",
        "distance_km": 1.37,
        "lat": 38.7659572,
        "lon": -9.231061,
        "schedule": "Mo-Su 08:00-21:00; easter 08:00-14:00"
      }
    ]
  },
  {
    "matchId": "jyY1Dx4n",
    "date": "21.03.2026 15:30",
    "home_team": "Moreirense",
    "away_team": "Arouca",
    "stadium": "Estádio Com. Joaquim de Almeida Freitas",
    "stadium_lat": 41.4363,
    "stadium_lon": -8.3562,
    "nearby_stores": [
      {
        "name": "Guimarães - Av. D. João IV",
        "address": "4810-225",
        "distance_km": 5.36,
        "lat": 41.4379641,
        "lon": -8.2919309,
        "schedule": "Mo-Su 08:00-21:00; easter 08:00-14:00"
      },
      {
        "name": "Riba de Ave",
        "address": "4765-213",
        "distance_km": 5.37,
        "lat": 41.3952804,
        "lon": -8.3902594,
        "schedule": "Mo-Su 08:00-21:00; easter 08:00-14:00"
      },
      {
        "name": "Caldas das Taipas-Guimarães",
        "address": "4801-908",
        "distance_km": 5.73,
        "lat": 41.487789,
        "lon": -8.3551167,
        "schedule": "Mo-Su 09:00-21:00"
      }
    ]
  },
  {
    "matchId": "WEHD48LE",
    "date": "15.03.2026 18:00",
    "home_team": "Rio Ave",
    "away_team": "Estrela da Amadora",
    "stadium": "Estádio do Rio Ave FC",
    "stadium_lat": 41.3547,
    "stadium_lon": -8.741,
    "nearby_stores": [
      {
        "name": "Lavra",
        "address": "4455-089",
        "distance_km": 11.52,
        "lat": 41.2541763,
        "lon": -8.7077434,
        "schedule": "PH,Mo-Su 08:30-21:00"
      },
      {
        "name": "Moreira da Maia",
        "address": "Travessa Manuel Batista Barros, 4470-605 Moreira",
        "distance_km": 13.42,
        "lat": 41.2553145,
        "lon": -8.6498178,
        "schedule": "Mo-Su 08:00-21:00; easter 08:00-14:00"
      },
      {
        "name": "Quiosque do Pingo Doce",
        "address": "",
        "distance_km": 14.54,
        "lat": 41.2645528,
        "lon": -8.6149529,
        "schedule": "N/A"
      }
    ]
  },
  {
    "matchId": "jH9K0aKt",
    "date": "15.03.2026 15:30",
    "home_team": "AFS",
    "away_team": "Santa Clara",
    "stadium": "Estádio do CD Aves",
    "stadium_lat": 41.3458,
    "stadium_lon": -8.3975,
    "nearby_stores": [
      {
        "name": "Vila das Aves",
        "address": "4795-001",
        "distance_km": 2.45,
        "lat": 41.3668852,
        "lon": -8.4059383,
        "schedule": "Mo-Su 08:00-21:00; easter 08:00-14:00"
      },
      {
        "name": "Riba de Ave",
        "address": "4765-213",
        "distance_km": 5.54,
        "lat": 41.3952804,
        "lon": -8.3902594,
        "schedule": "Mo-Su 08:00-21:00; easter 08:00-14:00"
      },
      {
        "name": "Guimarães - Av. D. João IV",
        "address": "4810-225",
        "distance_km": 13.51,
        "lat": 41.4379641,
        "lon": -8.2919309,
        "schedule": "Mo-Su 08:00-21:00; easter 08:00-14:00"
      }
    ]
  },
  {
    "matchId": "vwt2rI4C",
    "date": "15.03.2026 20:30",
    "home_team": "FC Porto",
    "away_team": "Moreirense",
    "stadium": "Estádio do Dragão",
    "stadium_lat": 41.1618,
    "stadium_lon": -8.5839,
    "nearby_stores": [
      {
        "name": "São Roque da Lameira Porto",
        "address": "4350-307",
        "distance_km": 0.37,
        "lat": 41.1584656,
        "lon": -8.5833453,
        "schedule": "Mo-Su 07:00-22:00"
      },
      {
        "name": "Velasques",
        "address": "Praça de Francisco Sá Carneiro, 4200-313 Porto",
        "distance_km": 0.77,
        "lat": 41.1628775,
        "lon": -8.5929753,
        "schedule": "Mo-Su 08:00-21:00; easter 08:00-14:00"
      },
      {
        "name": "Salgueiros Paranhos",
        "address": "Rua de Aval de Baixo, 4200-099 Paranhos",
        "distance_km": 1.38,
        "lat": 41.1679272,
        "lon": -8.5982629,
        "schedule": "Mo-Su 08:00-21:00; easter 08:00-14:00"
      }
    ]
  },
  {
    "matchId": "48PRt5T7",
    "date": "15.03.2026 15:30",
    "home_team": "Nacional",
    "away_team": "Estoril",
    "stadium": "Estádio da Madeira",
    "stadium_lat": 32.6669,
    "stadium_lon": -16.8929,
    "nearby_stores": [
      {
        "name": "Super Anadia",
        "address": "Rua Doutor Fernão de Ornelas, 9050-020 Funchal",
        "distance_km": 2.24,
        "lat": 32.6493136,
        "lon": -16.9046475,
        "schedule": "Mo-Su 07:30-22:00; easter 07:30-14:00"
      },
      {
        "name": "Super Penteada",
        "address": "9000-000 Funchal",
        "distance_km": 3.37,
        "lat": 32.663472,
        "lon": -16.9286424,
        "schedule": "Mo-Su 07:30-21:00; easter 07:30-14:00"
      },
      {
        "name": "Super Cancela",
        "address": "Estrada do Garajau, 9125-067 Caniço",
        "distance_km": 4.03,
        "lat": 32.646567,
        "lon": -16.8572958,
        "schedule": "Mo-Su 08:00-22:00; easter 08:00-14:00"
      }
    ]
  }
]